"Name","Latitude","Longitude","Type"
"Bimbagu CHPS Clinic",10.58435,-0.10499,"CHPS"
"Nakpanduri Health Center",10.63507,-0.17988,"Health Center"
"Kambatiak CHPS",10.59326,0.00758,"CHPS"
"Nasuan Health Center",10.51345,-0.16544,"Health Center"
"Bunkpurugu Health Ctr",10.52152,0.09392,"Health Center"
"Rabito Clinic",10.51631,0.10092,"Health Center"
"Gbingbani Health Center",10.38182,0.15327,"Health Center"
"Kambagu CHPS Clinic",10.56598,0.05467,"CHPS"
